[
    {
        "name": "Seoul",
        "value": "서울",
        "coord": {
            "lon": 127.0,
            "lat": 37.583328
        }
    },
    {
        "name": "Gyeonggi-do",
        "value": "경기도",
        "coord": {
            "lon": 127.25,
            "lat": 37.599998
        }
    },
    {
        "name": "Incheon",
        "value": "인천",
        "coord": {
            "lon": 126.416107,
            "lat": 37.450001
        }
    },
    {
        "name": "Gangwon-do",
        "value": "강원도",
        "coord": {
            "lon": 128.25,
            "lat": 37.75
        }
    },
    {
        "name": "Chungcheongnam-do",
        "value": "충청남도",
        "coord": {
            "lon": 127.0,
            "lat": 36.5
        }
    },
    {
        "name": "Chungcheongbuk-do",
        "value": "충청북도",
        "coord": {
            "lon": 128.0,
            "lat": 36.75
        }
    },
    {
        "name": "Gyeongsangbuk-do",
        "value": "경상북도",
        "coord": {
            "lon": 128.75,
            "lat": 36.333328
        }
    },
    {
        "name": "Busan",
        "value": "부산",
        "coord": {
            "lon": 129.050003,
            "lat": 35.133331
        }
    },
    {
        "name": "Jeollanam-do",
        "value": "전라남도",
        "coord": {
            "lon": 127.0,
            "lat": 34.75
        }
    },
    {
        "name": "Jeollabuk-do",
        "value": "전라북도",
        "coord": {
            "lon": 127.25,
            "lat": 35.75
        }
    },
    {
        "name": "Jeju-do",
        "value": "제주도",
        "coord": {
            "lon": 126.5,
            "lat": 33.416672
        }
    }
]
